idPunto,idCliente,nombreCliente,productos,latitud,longitud,tipoPunto
31,0001,Juan Pérez,"Agua x2, Refresco x1, Pan x3",19.426921,-99.160895,1
32,0002,María López,"Leche x1, Huevo x12, Jugo x2",19.431371,-99.158869,2
33,0003,Carlos Ramírez,"Arroz x1, Frijoles x2, Aceite x1",19.425784,-99.193877,2
34,0004,Ana Torres,"Cereal x1, Galletas x2, Yogurt x3",19.436828,-99.144014,2
35,0005,Luis Fernández,"Papel Higiénico x4, Jabón x2, Pasta x1",19.432553,-99.141272,2

